{"_id":2508813,"name":"Adrar","country":"DZ","coord":{"lon":-0.29388,"lat":27.87429}}
{"_id":2151649,"name":"Richmond","country":"AU","coord":{"lon":145.001755,"lat":-37.818192}}
{"_id":2171000,"name":"Collingwood","country":"AU","coord":{"lon":144.983337,"lat":-37.799999}}
{"_id":2154855,"name":"North Sydney","country":"AU","coord":{"lon":151.207214,"lat":-33.840561}}
{"_id":2166584,"name":"Fitzroy","country":"AU","coord":{"lon":144.983337,"lat":-37.783329}}
{"_id":6943577,"name":"London","country":"AU","coord":{"lon":153.034744,"lat":-27.45718}}
{"_id":2065337,"name":"Sheffield","country":"AU","coord":{"lon":116.166672,"lat":-31.9}}
{"_id":2176264,"name":"Burton","country":"AU","coord":{"lon":153.116669,"lat":-27.5}}
{"_id":1809104,"name":"Leiden","country":"CN","coord":{"lon":116.299171,"lat":39.979172}}
